$GPTXT,01,01,02,MA=CASIC*27
$GPTXT,01,01,02,IC=AT6558-5N-32-1C510800*48
$GPTXT,01,01,02,SW=URANUS5,V5.1.0.0*1F
$GPTXT,01,01,02,TB=2018-04-18,10:28:16*40
$GPTXT,01,01,02,MO=GB*77
$GNGGA,080452.042,,,,,0,00,25.5,,,,,,*77
$GNGLL,,,,,080452.042,V,M*6A
$GNGSA,A,1,,,,,,,,,,,,,25.5,25.5,25.5,1*01
$GNGSA,A,1,,,,,,,,,,,,,25.5,25.5,25.5,4*04
$GPGSV,3,1,10,01,29,175,,07,43,325,,08,66,357,,09,35,255,,0*6F
$GPGSV,3,2,10,11,55,192,,16,25,061,,18,48,149,,23,32,214,,0*66
$GPGSV,3,3,10,26,08,084,,27,37,030,,0*66
$BDGSV,1,1,00,0*74
$GNRMC,080452.042,V,,,,,,,190319,,,M,V*24
$GNVTG,,,,,,,,,M*2D
$GNZDA,080452.042,19,03,2019,00,00*44
何\0\0\0何\0\0\0\0\0何\0\0\0\0\0$GNGGA,080453.042,,,,,0,00,25.5,,,,,,*76
$GNGLL,,,,,080453.042,V,M*6B
$GNGSA,A,1,,,,,,,,,,,,,25.5,25.5,25.5,1*01
$GNGSA,A,1,,,,,,,,,,,,,25.5,25.5,25.5,4*04
$GPGSV,3,1,10,01,29,175,,07,43,325,,08,66,357,,09,35,255,,0*6F
$GPGSV,3,2,10,11,55,192,,16,25,061,,18,48,149,,23,32,214,,0*66
$GPGSV,3,3,10,26,08,084,,27,37,030,,0*66
$BDGSV,1,1,00,0*74
$GNRMC,080453.042,V,,,,,,,190319,,,M,V*25
$GNVTG,,,,,,,,,M*2D
$GNZDA,080453.042,19,03,2019,00,00*45
$GPTXT,01,01,01,ANTENNA OPEN*25
何\0\0\0\0\0何\0\0\0\0\0何\0\0\0\0\0何\0\0\0\0\0何\0\0\0\0\0何\0\0\0\0\0何\0\0\0\0\0何\0\0\0\0\0何\0\0\0\0\0何\0\0\0\0\0何\0\0\0\0\0$GNGGA,080454.042,,,,,0,00,25.5,,,,,,*71
$GNGLL,,,,,080454.042,V,M*6C
$GNGSA,A,1,,,,,,,,,,,,,25.5,25.5,25.5,1*01
$GNGSA,A,1,,,,,,,,,,,,,25.5,25.5,25.5,4*04
$GPGSV,3,1,10,01,29,175,,07,43,325,37,08,66,357,28,09,35,255,,0*61
$GPGSV,3,2,10,11,55,192,,16,25,061,,18,48,149,,23,32,214,31,0*64
$GPGSV,3,3,10,26,08,084,,27,37,030,,0*66
$BDGSV,1,1,00,0*74
$GNRMC,080454.042,V,,,,,,,190319,,,M,V*22
$GNVTG,,,,,,,,,M*2D
$GNZDA,080454.042,19,03,2019,00,00*42
$GPTXT,01,01,01,ANTENNA OPEN*25
何\0\0\0\0\0何\0\0\0\0\0何\0\0\0\0\0何\0\0\0\0\0何\0\0\0\0\0何\0\0\0\0\0何\0\0\0\0\0何\0\0\0\0\0何\0\0\0\0\0何\0\0\0\0\0何\0\0\0\0\0$GNGGA,080455.042,,,,,0,00,25.5,,,,,,*70
$GNGLL,,,,,080455.042,V,M*6D
$GNGSA,A,1,,,,,,,,,,,,,25.5,25.5,25.5,1*01
$GNGSA,A,1,,,,,,,,,,,,,25.5,25.5,25.5,4*04
$GPGSV,3,1,10,01,29,175,,07,43,325,36,08,66,357,28,09,35,255,,0*60
$GPGSV,3,2,10,11,55,192,,16,25,061,,18,48,149,,23,32,214,31,0*64
$GPGSV,3,3,10,26,08,084,,27,37,030,,0*66
$BDGSV,1,1,00,0*74
$GNRMC,080455.042,V,,,,,,,190319,,,M,V*23
$GNVTG,,,,,,,,,M*2D
$GNZDA,080455.042,19,03,2019,00,00*43
$GPTXT,01,01,01,ANTENNA OPEN*25
$GNGGA,080456.042,,,,,0,00,25.5,,,,,,*73
$GNGLL,,,,,080456.042,V,M*6E
$GNGSA,A,1,,,,,,,,,,,,,25.5,25.5,25.5,1*01
$GNGSA,A,1,,,,,,,,,,,,,25.5,25.5,25.5,4*04
$GPGSV,3,1,10,01,29,175,,07,43,325,36,08,66,357,28,09,35,255,,0*60
$GPGSV,3,2,10,11,55,192,,16,25,061,,18,48,149,,23,32,214,31,0*64
$GPGSV,3,3,10,26,08,084,,27,37,030,,0*66
$BDGSV,1,1,00,0*74
$GNRMC,080456.042,V,,,,,,,190319,,,M,V*20
$GNVTG,,,,,,,,,M*2D
$GNZDA,080456.042,19,03,2019,00,00*40
$GPTXT,01,01,01,ANTENNA OPEN*25
$GNGGA,080457.042,,,,,0,00,25.5,,,,,,*72
$GNGLL,,,,,080457.042,V,M*6F
$GNGSA,A,1,,,,,,,,,,,,,25.5,25.5,25.5,1*01
$GNGSA,A,1,,,,,,,,,,,,,25.5,25.5,25.5,4*04
$GPGSV,3,1,10,01,29,175,,07,43,325,35,08,66,357,27,09,35,255,,0*6C
$GPGSV,3,2,10,11,55,192,,16,25,061,,18,48,149,,23,32,214,31,0*64
$GPGSV,3,3,10,26,08,084,,27,37,030,,0*66
$BDGSV,1,1,00,0*74
$GNRMC,080457.042,V,,,,,,,190319,,,M,V*21
$GNVTG,,,,,,,,,M*2D
$GNZDA,080457.042,19,03,2019,00,00*41
$GPTXT,01,01,01,ANTENNA OPEN*25
$GNGGA,080458.042,,,,,0,00,25.5,,,,,,*7D
$GNGLL,,,,,080458.042,V,M*60
$GNGSA,A,1,,,,,,,,,,,,,25.5,25.5,25.5,1*01
$GNGSA,A,1,,,,,,,,,,,,,25.5,25.5,25.5,4*04
$GPGSV,3,1,10,01,29,175,,07,43,325,31,08,66,357,27,09,35,255,,0*68
$GPGSV,3,2,10,11,55,192,,16,25,061,,18,48,149,,23,32,214,31,0*64
$GPGSV,3,3,10,26,08,084,,27,37,030,,0*66
$BDGSV,1,1,00,0*74
$GNRMC,080458.042,V,,,,,,,190319,,,M,V*2E
$GNVTG,,,,,,,,,M*2D
$GNZDA,080458.042,19,03,2019,00,00*4E
$GPTXT,01,01,01,ANTENNA OPEN*25
$GNGGA,080459.042,,,,,0,00,25.5,,,,,,*7C
$GNGLL,,,,,080459.042,V,M*61
$GNGSA,A,1,,,,,,,,,,,,,25.5,25.5,25.5,1*01
$GNGSA,A,1,,,,,,,,,,,,,25.5,25.5,25.5,4*04
$GPGSV,3,1,10,01,29,175,24,07,43,325,31,08,66,357,23,09,35,255,,0*6A
$GPGSV,3,2,10,11,55,192,,16,25,061,,18,48,149,,23,32,214,27,0*63
$GPGSV,3,3,10,26,08,084,25,27,37,030,,0*61
$BDGSV,1,1,00,0*74
$GNRMC,080459.042,V,,,,,,,190319,,,M,V*2F
$GNVTG,,,,,,,,,M*2D
$GNZDA,080459.042,19,03,2019,00,00*4F
$GPTXT,01,01,01,ANTENNA OPEN*25
$GNGGA,080500.001,2232.52086,N,11357.15590,E,6,06,1.3,3.1,M,-3.4,M,,*54
$GNGLL,2232.52086,N,11357.15590,E,080500.001,A,E*4E
$GNGSA,A,3,01,07,08,18,23,26,,,,,,,2.5,1.3,2.1,1*35
$GNGSA,A,3,,,,,,,,,,,,,2.5,1.3,2.1,4*32
$GPGSV,3,1,10,01,29,175,21,07,43,325,31,08,66,357,23,09,35,255,,0*6F
$GPGSV,3,2,10,11,55,192,,16,25,061,,18,48,149,23,23,31,214,27,0*61
$GPGSV,3,3,10,26,08,084,25,27,37,030,,0*61
$BDGSV,1,1,00,0*74
$GNRMC,080500.001,A,2232.52086,N,11357.15590,E,0.93,0.00,190319,,,E,V*0A
$GNVTG,0.00,T,,M,0.93,N,1.72,K,E*29
$GNZDA,080500.001,19,03,2019,00,00*45
$GPTXT,01,01,01,ANTENNA OPEN*25
$GNGGA,080501.002,2232.52086,N,11357.15565,E,1,06,1.3,3.0,M,-3.4,M,,*5A
$GNGLL,2232.52086,N,11357.15565,E,080501.002,A,A*42
$GNGSA,A,3,01,07,08,18,23,26,,,,,,,2.5,1.3,2.1,1*35
$GNGSA,A,3,,,,,,,,,,,,,2.5,1.3,2.1,4*32
$GPGSV,3,1,10,01,29,175,21,07,43,325,31,08,66,357,23,09,35,255,,0*6F
$GPGSV,3,2,10,11,55,192,,16,25,061,,18,48,149,20,23,31,214,27,0*62
$GPGSV,3,3,10,26,08,084,23,27,37,030,,0*67
$BDGSV,1,1,00,0*74
$GNRMC,080501.002,A,2232.52086,N,11357.15565,E,0.58,0.00,190319,,,A,V*01
$GNVTG,0.00,T,,M,0.58,N,1.07,K,A*28
$GNZDA,080501.002,19,03,2019,00,00*47
$GPTXT,01,01,01,ANTENNA OPEN*25
$GNGGA,080502.000,2232.52078,N,11357.15534,E,1,06,1.3,2.9,M,-3.4,M,,*56
$GNGLL,2232.52078,N,11357.15534,E,080502.000,A,A*46
$GNGSA,A,3,01,07,08,18,23,26,,,,,,,2.5,1.3,2.1,1*35
$GNGSA,A,3,,,,,,,,,,,,,2.5,1.3,2.1,4*32
$GPGSV,3,1,10,01,29,175,21,07,43,325,32,08,66,357,23,09,35,255,,0*6C
$GPGSV,3,2,10,11,55,192,,16,25,061,,18,48,149,20,23,31,214,25,0*60
$GPGSV,3,3,10,26,08,084,23,27,37,030,,0*67
$BDGSV,1,1,00,0*74
$GNRMC,080502.000,A,2232.52078,N,11357.15534,E,0.88,0.00,190319,,,A,V*08
$GNVTG,0.00,T,,M,0.88,N,1.63,K,A*27
$GNZDA,080502.000,19,03,2019,00,00*46
$GPTXT,01,01,01,ANTENNA OPEN*25
$GPTXT,01,01,02,SW=URANUS5,V5.1.0.0*1F
$GNGGA,080503.000,2232.52053,N,11357.15493,E,1,06,1.3,2.7,M,-3.4,M,,*5C
$GNGLL,2232.52053,N,11357.15493,E,080503.000,A,A*42
$GNGSA,A,3,01,07,08,18,23,26,,,,,,,2.5,1.3,2.1,1*35
$GNGSA,A,3,,,,,,,,,,,,,2.5,1.3,2.1,4*32
$GPGSV,3,1,10,01,29,175,21,07,43,325,32,08,66,357,23,09,35,255,,0*6C
$GPGSV,3,2,10,11,55,192,,16,25,061,,18,48,149,20,23,31,214,25,0*60
$GPGSV,3,3,10,26,08,084,23,27,37,030,,0*67
$BDGSV,1,1,00,0*74
$GNRMC,080503.000,A,2232.52053,N,11357.15493,E,0.85,0.00,190319,,,A,V*01
$GNVTG,0.00,T,,M,0.85,N,1.58,K,A*22
$GNZDA,080503.000,19,03,2019,00,00*47
$GPTXT,01,01,01,ANTENNA OPEN*25
$GNGGA,080504.000,2232.51894,N,11357.15388,E,1,06,1.3,5.6,M,-3.4,M,,*50
$GNGLL,2232.51894,N,11357.15388,E,080504.000,A,A*48
$GNGSA,A,3,01,07,08,18,23,26,,,,,,,2.4,1.3,2.1,1*34
$GNGSA,A,3,,,,,,,,,,,,,2.4,1.3,2.1,4*33
$GPGSV,3,1,10,01,29,175,21,07,43,325,32,08,66,357,23,09,35,255,,0*6C
$GPGSV,3,2,10,11,55,192,,16,25,061,,18,48,149,20,23,31,214,25,0*60
$GPGSV,3,3,10,26,08,084,23,27,37,030,,0*67
$BDGSV,1,1,00,0*74
$GNRMC,080504.000,A,2232.51894,N,11357.15388,E,0.83,0.00,190319,,,A,V*0D
$GNVTG,0.00,T,,M,0.83,N,1.54,K,A*28
$GNZDA,080504.000,19,03,2019,00,00*40
$GPTXT,01,01,01,ANTENNA OPEN*25
$GNGGA,080505.000,2232.51849,N,11357.15356,E,1,06,1.3,5.7,M,-3.4,M,,*53
$GNGLL,2232.51849,N,11357.15356,E,080505.000,A,A*4A
$GNGSA,A,3,01,07,08,18,23,26,,,,,,,2.4,1.3,2.1,1*34
$GNGSA,A,3,,,,,,,,,,,,,2.4,1.3,2.1,4*33
$GPGSV,3,1,10,01,29,175,21,07,43,325,32,08,66,357,23,09,35,255,,0*6C
$GPGSV,3,2,10,11,55,192,,16,25,061,,18,48,149,20,23,31,214,25,0*60
$GPGSV,3,3,10,26,08,084,23,27,37,030,,0*67
$BDGSV,1,1,00,0*74
$GNRMC,080505.000,A,2232.51849,N,11357.15356,E,0.74,0.00,190319,,,A,V*07
$GNVTG,0.00,T,,M,0.74,N,1.36,K,A*24
$GNZDA,080505.000,19,03,2019,00,00*41
$GPTXT,01,01,01,ANTENNA OPEN*25
$GNGGA,080506.000,2232.51968,N,11357.15391,E,1,07,1.2,5.3,M,-3.4,M,,*5D
$GNGLL,2232.51968,N,11357.15391,E,080506.000,A,A*40
$GNGSA,A,3,01,07,08,11,18,23,26,,,,,,2.3,1.2,1.9,1*39
$GNGSA,A,3,,,,,,,,,,,,,2.3,1.2,1.9,4*3E
$GPGSV,3,1,10,01,29,175,17,07,43,325,32,08,66,357,23,09,35,255,,0*69
$GPGSV,3,2,10,11,55,192,21,16,25,061,,18,48,149,20,23,31,214,25,0*63
$GPGSV,3,3,10,26,08,084,23,27,37,030,,0*67
$BDGSV,1,1,00,0*74
$GNRMC,080506.000,A,2232.51968,N,11357.15391,E,0.63,0.00,190319,,,A,V*0B
$GNVTG,0.00,T,,M,0.63,N,1.16,K,A*20
$GNZDA,080506.000,19,03,2019,00,00*42
$GPTXT,01,01,01,ANTENNA OPEN*25
$GNGGA,080507.000,2232.52008,N,11357.15379,E,1,07,1.2,4.5,M,-3.4,M,,*51
$GNGLL,2232.52008,N,11357.15379,E,080507.000,A,A*4B
$GNGSA,A,3,01,07,08,11,18,23,26,,,,,,2.3,1.2,1.9,1*39
$GNGSA,A,3,,,,,,,,,,,,,2.3,1.2,1.9,4*3E
$GPGSV,3,1,10,01,29,175,17,07,43,325,30,08,66,357,23,09,35,255,,0*6B
$GPGSV,3,2,10,11,55,192,21,16,25,061,,18,48,149,20,23,31,214,25,0*63
$GPGSV,3,3,10,26,08,084,23,27,37,030,,0*67
$BDGSV,1,1,00,0*74
$GNRMC,080507.000,A,2232.52008,N,11357.15379,E,0.61,0.00,190319,,,A,V*02
$GNVTG,0.00,T,,M,0.61,N,1.12,K,A*26
$GNZDA,080507.000,19,03,2019,00,00*43
$GPTXT,01,01,01,ANTENNA OPEN*25
$GNGGA,080508.000,2232.52018,N,11357.15364,E,1,07,1.2,3.8,M,-3.4,M,,*59
$GNGLL,2232.52018,N,11357.15364,E,080508.000,A,A*49
$GNGSA,A,3,01,07,08,11,18,23,26,,,,,,2.3,1.2,1.9,1*39
$GNGSA,A,3,,,,,,,,,,,,,2.3,1.2,1.9,4*3E
$GPGSV,3,1,10,01,29,175,17,07,43,325,30,08,66,357,23,09,35,255,,0*6B
$GPGSV,3,2,10,11,55,192,21,16,25,061,,18,48,149,20,23,31,214,25,0*63
$GPGSV,3,3,10,26,08,084,22,27,37,030,,0*66
$BDGSV,1,1,00,0*74
$GNRMC,080508.000,A,2232.52018,N,11357.15364,E,0.61,0.00,190319,,,A,V*00
$GNVTG,0.00,T,,M,0.61,N,1.12,K,A*26
$GNZDA,080508.000,19,03,2019,00,00*4C
$GPTXT,01,01,01,ANTENNA OPEN*25
$GNGGA,080509.000,2232.52028,N,11357.15350,E,1,07,1.2,3.2,M,-3.4,M,,*56
$GNGLL,2232.52028,N,11357.15350,E,080509.000,A,A*4C
$GNGSA,A,3,01,07,08,11,18,23,26,,,,,,2.3,1.2,1.9,1*39
$GNGSA,A,3,,,,,,,,,,,,,2.3,1.2,1.9,4*3E
$GPGSV,3,1,10,01,29,175,17,07,43,325,30,08,66,357,23,09,35,255,,0*6B
$GPGSV,3,2,10,11,55,192,21,16,25,061,,18,48,149,20,23,31,214,26,0*60
$GPGSV,3,3,10,26,08,084,22,27,37,030,,0*66
$BDGSV,1,1,00,0*74
$GNRMC,080509.000,A,2232.52028,N,11357.15350,E,0.61,0.00,190319,,,A,V*05
$GNVTG,0.00,T,,M,0.61,N,1.12,K,A*26
$GNZDA,080509.000,19,03,2019,00,00*4D
$GPTXT,01,01,01,ANTENNA OPEN*25
$GNGGA,080510.040,2232.52019,N,11357.15330,E,1,07,1.2,2.2,M,-3.4,M,,*5F
$GNGLL,2232.52019,N,11357.15330,E,080510.040,A,A*44
$GNGSA,A,3,01,07,08,11,18,23,26,,,,,,2.3,1.2,1.9,1*39
$GNGSA,A,3,,,,,,,,,,,,,2.3,1.2,1.9,4*3E
$GPGSV,3,1,10,01,29,175,17,07,43,325,30,08,66,357,23,09,35,255,,0*6B
$GPGSV,3,2,10,11,55,192,21,16,25,061,,18,48,149,20,23,31,214,29,0*6F
$GPGSV,3,3,10,26,08,084,22,27,37,030,,0*66
$BDGSV,1,1,00,0*74
$GNRMC,080510.040,A,2232.52019,N,11357.15330,E,0.69,0.00,190319,,,A,V*05
$GNVTG,0.00,T,,M,0.69,N,1.27,K,A*28
$GNZDA,080510.040,19,03,2019,00,00*41
$GPTXT,01,01,01,ANTENNA OPEN*25
$GNGGA,080511.000,2232.52058,N,11357.15334,E,1,07,1.2,1.8,M,-3.4,M,,*52
$GNGLL,2232.52058,N,11357.15334,E,080511.000,A,A*40
$GNGSA,A,3,01,07,08,11,18,23,26,,,,,,2.3,1.2,1.9,1*39
$GNGSA,A,3,,,,,,,,,,,,,2.3,1.2,1.9,4*3E
$GPGSV,3,1,10,01,29,175,20,07,43,325,30,08,66,357,23,09,35,255,,0*6F
$GPGSV,3,2,10,11,55,192,21,16,25,061,,18,48,149,20,23,31,214,29,0*6F
$GPGSV,3,3,10,26,08,084,22,27,37,030,,0*66
$BDGSV,1,1,00,0*74
$GNRMC,080511.000,A,2232.52058,N,11357.15334,E,0.59,0.00,190319,,,A,V*02
$GNVTG,0.00,T,,M,0.59,N,1.10,K,A*2F
$GNZDA,080511.000,19,03,2019,00,00*44
$GPTXT,01,01,01,ANTENNA OPEN*25
$GNGGA,080512.000,2232.52097,N,11357.15339,E,1,07,1.2,1.6,M,-3.4,M,,*51
$GNGLL,2232.52097,N,11357.15339,E,080512.000,A,A*4D
$GNGSA,A,3,01,07,08,11,18,23,26,,,,,,2.3,1.2,1.9,1*39
$GNGSA,A,3,,,,,,,,,,,,,2.3,1.2,1.9,4*3E
$GPGSV,3,1,10,01,29,175,20,07,43,325,30,08,66,357,26,09,35,254,,0*6B
$GPGSV,3,2,10,11,55,192,21,16,25,061,,18,48,149,19,23,31,214,29,0*65
$GPGSV,3,3,10,26,08,084,22,27,37,030,,0*66
$BDGSV,1,1,00,0*74
$GNRMC,080512.000,A,2232.52097,N,11357.15339,E,0.49,0.00,190319,,,A,V*0E
$GNVTG,0.00,T,,M,0.49,N,0.91,K,A*26
$GNZDA,080512.000,19,03,2019,00,00*47
$GPTXT,01,01,01,ANTENNA OPEN*25
$GNGGA,080513.000,2232.52155,N,11357.15371,E,1,07,1.2,1.5,M,-3.4,M,,*50
$GNGLL,2232.52155,N,11357.15371,E,080513.000,A,A*4F
$GNGSA,A,3,01,07,08,11,18,23,26,,,,,,2.3,1.2,1.9,1*39
$GNGSA,A,3,,,,,,,,,,,,,2.3,1.2,1.9,4*3E
$GPGSV,3,1,10,01,29,175,20,07,43,325,30,08,66,357,26,09,35,254,,0*6B
$GPGSV,3,2,10,11,55,192,21,16,25,061,,18,48,149,19,23,31,214,27,0*6B
$GPGSV,3,3,10,26,08,084,22,27,37,030,,0*66
$BDGSV,1,1,00,0*74
$GNRMC,080513.000,A,2232.52155,N,11357.15371,E,0.00,0.00,190319,,,A,V*01
$GNVTG,0.00,T,,M,0.00,N,0.00,K,A*23
$GNZDA,080513.000,19,03,2019,00,00*46
$GPTXT,01,01,01,ANTENNA OPEN*25
$GNGGA,080514.000,2232.52216,N,11357.15398,E,1,07,1.2,1.3,M,-3.4,M,,*52
$GNGLL,2232.52216,N,11357.15398,E,080514.000,A,A*4B
$GNGSA,A,3,01,07,08,11,18,23,26,,,,,,2.3,1.2,1.9,1*39
$GNGSA,A,3,,,,,,,,,,,,,2.3,1.2,1.9,4*3E
$GPGSV,3,1,10,01,29,175,20,07,43,325,31,08,66,357,28,09,35,254,,0*64
$GPGSV,3,2,10,11,55,192,22,16,25,061,,18,48,149,19,23,31,214,27,0*68
$GPGSV,3,3,10,26,08,084,22,27,37,030,,0*66
$BDGSV,1,1,00,0*74
$GNRMC,080514.000,A,2232.52216,N,11357.15398,E,0.00,0.00,190319,,,A,V*05
$GNVTG,0.00,T,,M,0.00,N,0.00,K,A*23
$GNZDA,080514.000,19,03,2019,00,00*41
$GPTXT,01,01,01,ANTENNA OPEN*25
$GNGGA,080515.000,2232.52321,N,11357.15413,E,1,07,1.2,0.8,M,-3.4,M,,*58
$GNGLL,2232.52321,N,11357.15413,E,080515.000,A,A*4B
$GNGSA,A,3,01,07,08,11,18,23,26,,,,,,2.3,1.2,1.9,1*39
$GNGSA,A,3,,,,,,,,,,,,,2.3,1.2,1.9,4*3E
$GPGSV,3,1,10,01,29,175,22,07,43,325,31,08,66,357,28,09,35,254,,0*66
$GPGSV,3,2,10,11,55,192,22,16,25,061,,18,48,149,19,23,31,214,27,0*68
$GPGSV,3,3,10,26,08,084,22,27,37,030,,0*66
$BDGSV,1,1,00,0*74
$GNRMC,080515.000,A,2232.52321,N,11357.15413,E,0.00,0.00,190319,,,A,V*05
$GNVTG,0.00,T,,M,0.00,N,0.00,K,A*23
$GNZDA,080515.000,19,03,2019,00,00*40
$GPTXT,01,01,01,ANTENNA OPEN*25
